{"version": 0.6, "generator": "Overpass API 0.7.62.8 e802775f", "osm3s": {"timestamp_osm_base": "2025-09-13T03:04:09Z", "copyright": "The data included in this document is from www.openstreetmap.org. The data is made available under ODbL."}, "elements": [{"type": "node", "id": 1959600652, "lat": -17.9687874, "lon": -65.9973278, "tags": {"addr:city": "Torno Ckasa", "addr:postcode": "POT", "amenity": "hospital", "description": "Puesto de Salud 1er Nivel \nMinSalud CODSNIS 500399", "emergency": "yes", "fixme": "exact_location", "healthcare": "hospital", "healthcare:speciality": "general", "name": "P.S. Torno Kasa (1er Nivel)"}}, {"type": "node", "id": 4805646819, "lat": -18.1356165, "lon": -65.7611672}, {"type": "node", "id": 4805646820, "lat": -18.1358027, "lon": -65.7609448}, {"type": "node", "id": 4805674021, "lat": -18.135571, "lon": -65.7607259}, {"type": "node", "id": 4805674022, "lat": -18.1356139, "lon": -65.7606579}, {"type": "node", "id": 4805674023, "lat": -18.1352749, "lon": -65.7604218}, {"type": "node", "id": 4805674024, "lat": -18.1349792, "lon": -65.7608054}, {"type": "node", "id": 4805674025, "lat": -18.13515, "lon": -65.7609663}, {"type": "node", "id": 4805674026, "lat": -18.1353047, "lon": -65.7608395}, {"type": "node", "id": 5418829558, "lat": -18.0241762, "lon": -66.0586907, "tags": {"addr:city": "Acasio", "amenity": "hospital", "emergency": "yes", "fixme": "exact_location", "healthcare": "hospital", "healthcare:speciality": "general", "name": "C.S. Acasio"}}, {"type": "node", "id": 5418843358, "lat": -18.0792313, "lon": -66.0166096, "tags": {"addr:city": "Piriquina", "amenity": "hospital", "emergency": "yes", "fixme": "exact_location", "healthcare": "hospital", "healthcare:speciality": "general", "name": "P.S. Piriquina (1er Nivel)"}}, {"type": "node", "id": 8262965389, "lat": -17.8768971, "lon": -66.0831114}, {"type": "node", "id": 8262965390, "lat": -17.8769549, "lon": -66.0830948}, {"type": "node", "id": 8262965391, "lat": -17.8769625, "lon": -66.0830812}, {"type": "node", "id": 8262965392, "lat": -17.8770295, "lon": -66.0830623}, {"type": "node", "id": 8262965393, "lat": -17.8770382, "lon": -66.0830961}, {"type": "node", "id": 8262965394, "lat": -17.8770622, "lon": -66.0830893}, {"type": "node", "id": 8262965395, "lat": -17.8770568, "lon": -66.0830683}, {"type": "node", "id": 8262965396, "lat": -17.8771544, "lon": -66.0830407}, {"type": "node", "id": 8262965397, "lat": -17.877179, "lon": -66.0831369}, {"type": "node", "id": 8262965398, "lat": -17.8771502, "lon": -66.083145}, {"type": "node", "id": 8262965399, "lat": -17.8771526, "lon": -66.0831546}, {"type": "node", "id": 8262965400, "lat": -17.8770894, "lon": -66.0831725}, {"type": "node", "id": 8262965401, "lat": -17.8770874, "lon": -66.0831647}, {"type": "node", "id": 8262965402, "lat": -17.877074, "lon": -66.0831685}, {"type": "node", "id": 8262965403, "lat": -17.87707, "lon": -66.0831527}, {"type": "node", "id": 8262965404, "lat": -17.8770482, "lon": -66.0831589}, {"type": "node", "id": 8262965405, "lat": -17.8770518, "lon": -66.0831728}, {"type": "node", "id": 8262965406, "lat": -17.8769827, "lon": -66.0831926}, {"type": "node", "id": 8262965407, "lat": -17.8769749, "lon": -66.0831624}, {"type": "node", "id": 8262965408, "lat": -17.8769567, "lon": -66.0831676}, {"type": "node", "id": 8262965409, "lat": -17.8769594, "lon": -66.0831781}, {"type": "node", "id": 8262965410, "lat": -17.8769175, "lon": -66.0831901}, {"type": "node", "id": 8397404598, "lat": -18.0181961, "lon": -65.7335345, "tags": {"addr:city": "Siquimira", "amenity": "hospital", "description": "Puesto de Salud de 1er Nivel\nMinSalud CODSNIS 300370", "emergency": "yes", "fixme": "Exact_Location", "healthcare": "hospital", "healthcare:speciality": "general", "name": "P.S. Sikimira (1er Nivel)"}}, {"type": "node", "id": 8401396451, "lat": -18.2081665, "lon": -65.9689001, "tags": {"addr:city": "Chiquipampa", "amenity": "hospital", "fixme": "Exact_location", "healthcare": "hospital", "healthcare:speciality": "general", "name": "P.S. Chiquipampa"}}, {"type": "node", "id": 8403112545, "lat": -17.8716675, "lon": -65.9758035, "tags": {"addr:city": "San Isidro", "amenity": "hospital", "description": "Puesto de Salud 1er Nivel \nMinsalud CODSNIS 300146", "emergency": "yes", "fixme": "Exact_location", "healthcare": "hospital", "healthcare:speciality": "general", "name": "P.S. San Isidro (1er Nivel)", "operator": "MinSalud", "operator:type": "public"}}, {"type": "node", "id": 9941844297, "lat": -18.1939897, "lon": -65.7799613, "tags": {"addr:city": "Tambo Kasa", "amenity": "hospital", "description": "Puesto de Salud de 1er Nivel \nMinsalud CODSNIS 500184", "emergency": "yes", "healthcare": "hospital", "healthcare:speciality": "general", "name": "P.S. Tambo Kasa"}}, {"type": "way", "id": 488237891, "nodes": [4805646819, 4805646820, 4805674021, 4805674022, 4805674023, 4805674024, 4805674025, 4805674026, 4805646819], "tags": {"addr:city": "ToroToro", "addr:street": "Calle Charcas", "amenity": "hospital", "barrier": "wall", "description": "Centro de Salud Integral (1er Nivel)", "emergency": "yes", "healthcare": "hospital", "healthcare:speciality": "general", "name": "C.S.I. Apostol Santiago", "operator": "Ministerio de Salud y Deportes", "operator:short": "MinSalud", "operator:type": "public", "operator:wikidata": "Q44225411", "operator:wikipedia": "es:Ministerio de Salud y Deportes (Bolivia)"}}, {"type": "way", "id": 888761402, "nodes": [8262965389, 8262965390, 8262965391, 8262965392, 8262965393, 8262965394, 8262965395, 8262965396, 8262965397, 8262965398, 8262965399, 8262965400, 8262965401, 8262965402, 8262965403, 8262965404, 8262965405, 8262965406, 8262965407, 8262965408, 8262965409, 8262965410, 8262965389], "tags": {"amenity": "hospital", "healthcare": "hospital", "name": "Hospital \"Renato Castro\"", "operator": "Municipio de Arampampa", "operator:type": "public"}}]}