{"version": 0.6, "generator": "Overpass API 0.7.62.8 e802775f", "osm3s": {"timestamp_osm_base": "2025-09-13T03:03:11Z", "copyright": "The data included in this document is from www.openstreetmap.org. The data is made available under ODbL."}, "elements": [{"type": "node", "id": 6611076383, "lat": -18.4556478, "lon": -64.9901854, "tags": {"addr:city": "Lagarpampa", "addr:postcode": "CBA", "amenity": "hospital", "description": "Puesto de Salud 1er Nivel \nMinsalud CODSNIS 300091\n", "emergency": "yes", "healthcare": "hospital", "healthcare:speciality": "general", "name": "P.S. Lagarpampa (1er Nivel)"}}, {"type": "node", "id": 10798706071, "lat": -18.3301275, "lon": -64.8747562, "tags": {"addr:city": "Estanzuelas Torrecillas", "addr:street": "Camino Pasorapa-Estanzuelas", "amenity": "hospital", "emergency": "yes", "healthcare": "hospital", "healthcare:speciality": "general", "name": "P.S. Estanzuelas", "operator": "Ministerio de Salud y Deportes", "operator:short": "MinSalud", "operator:type": "public", "operator:wikidata": "Q44225411"}}, {"type": "node", "id": 12635950384, "lat": -18.6119961, "lon": -64.8290818}, {"type": "node", "id": 12635950385, "lat": -18.6118413, "lon": -64.8290679}, {"type": "node", "id": 12635950386, "lat": -18.6118647, "lon": -64.8288291}, {"type": "node", "id": 12635950387, "lat": -18.6120267, "lon": -64.8288461}, {"type": "way", "id": 1364504134, "nodes": [12635950384, 12635950385, 12635950386, 12635950387, 12635950384], "tags": {"amenity": "hospital", "healthcare": "hospital", "name": "Puesto de Salud Laa Loya", "operator": "Ministerio de Salud y Deportes", "operator:short": "MinSalud", "operator:type": "government", "operator:wikidata": "Q44225411"}}]}