{"version": 0.6, "generator": "Overpass API 0.7.62.8 e802775f", "osm3s": {"timestamp_osm_base": "2025-09-13T03:04:09Z", "copyright": "The data included in this document is from www.openstreetmap.org. The data is made available under ODbL."}, "elements": [{"type": "node", "id": 6849252379, "lat": -16.843987, "lon": -64.7994678}, {"type": "node", "id": 6849252380, "lat": -16.8434046, "lon": -64.7981656}, {"type": "node", "id": 6849270163, "lat": -16.844843, "lon": -64.7991049}, {"type": "node", "id": 6849270164, "lat": -16.8442739, "lon": -64.7977451}, {"type": "node", "id": 9561982185, "lat": -16.9080512, "lon": -65.0027899, "tags": {"addr:city": "Ayopaya", "amenity": "hospital", "description": "Puesto de Salud de 1er Nivel\nMinSalud CODSNIS 300343", "emergency": "yes", "fixme": "Exact_location", "healthcare": "hospital", "healthcare:speciality": "general", "name": "P.S. Ayopaya", "operator": "Ministerio de Salud y Deportes", "operator:short": "MinSalud", "operator:type": "public", "operator:wikidata": "Q44225411", "operator:wikipedia": "es:Ministerio de Salud y Deportes (Bolivia)"}}, {"type": "node", "id": 11072192469, "lat": -16.8754071, "lon": -65.1325269}, {"type": "node", "id": 11072192470, "lat": -16.875399, "lon": -65.1334204}, {"type": "node", "id": 11072192471, "lat": -16.8760499, "lon": -65.1334179}, {"type": "node", "id": 11072192472, "lat": -16.8760539, "lon": -65.1325268}, {"type": "node", "id": 11098466525, "lat": -16.8755574, "lon": -65.1328814, "tags": {"addr:city": "Senda F Abanico", "amenity": "hospital", "emergency": "yes", "healthcare": "hospital", "healthcare:speciality": "general", "name": "Posta de Salud Senda F", "operator": "Ministerio de Salud y Deportes", "operator:short": "MinSalud", "operator:type": "public", "operator:wikidata": "Q44225411"}}, {"type": "node", "id": 12164556786, "lat": -16.7134274, "lon": -65.1495179, "tags": {"addr:city": "La Mision", "addr:street": "Camino a La Mision", "amenity": "clinic", "healthcare": "clinic", "healthcare:speciality": "general", "name": "Puesto de Salud La Mision"}}, {"type": "node", "id": 12170062443, "lat": -16.7571237, "lon": -65.0577603}, {"type": "node", "id": 12170062444, "lat": -16.756947, "lon": -65.0574456}, {"type": "node", "id": 12170062445, "lat": -16.7567039, "lon": -65.0576237}, {"type": "node", "id": 12170062446, "lat": -16.7568533, "lon": -65.0579043}, {"type": "node", "id": 12170099508, "lat": -16.7568683, "lon": -65.0576524, "tags": {"addr:city": "Esta\u00f1o Colorado", "amenity": "hospital", "emergency": "yes", "healthcare": "hospital", "healthcare:speciality": "general", "name": "Centro de Salud Esta\u00f1o Colorado"}}, {"type": "way", "id": 731245846, "nodes": [6849252379, 6849270163, 6849270164, 6849252380, 6849252379], "tags": {"amenity": "hospital", "healthcare": "hospital", "healthcare:speciality": "general"}}, {"type": "way", "id": 1192775025, "nodes": [11072192469, 11072192470, 11072192471, 11072192472, 11072192469], "tags": {"addr:city": "Senda F Abanico", "amenity": "hospital", "barrier": "fence", "healthcare": "hospital", "wheelchair": "yes"}}, {"type": "way", "id": 1314870222, "nodes": [12170062443, 12170062444, 12170062445, 12170062446, 12170062443], "tags": {"addr:city": "Esta\u00f1o Colorado", "amenity": "hospital", "healthcare": "hospital"}}]}