{"version": 0.6, "generator": "Overpass API 0.7.62.8 e802775f", "osm3s": {"timestamp_osm_base": "2025-09-13T03:04:09Z", "copyright": "The data included in this document is from www.openstreetmap.org. The data is made available under ODbL."}, "elements": [{"type": "node", "id": 876287737, "lat": -17.8730791, "lon": -65.1382289, "tags": {"addr:city": "Anta Qhawa", "amenity": "hospital", "healthcare": "hospital", "name": "P.S. Antakawa"}}, {"type": "node", "id": 877256010, "lat": -17.8428134, "lon": -65.0725234, "tags": {"addr:city": "Sauce Pila Pata", "addr:postcode": "CBA", "amenity": "hospital", "description": "Puesto de Salud 1er Nivel\nMinsalud CODSNIS 300308", "emergency": "yes", "fixme": "Exact_location", "healthcare": "hospital", "healthcare:speciality": "general", "name": "P.S. Sauce Pila Pata"}}, {"type": "node", "id": 3631611140, "lat": -18.2025681, "lon": -65.177458, "tags": {"amenity": "pharmacy"}}, {"type": "node", "id": 4115162905, "lat": -18.202978, "lon": -65.1761618}, {"type": "node", "id": 4115162906, "lat": -18.2029434, "lon": -65.1760848}, {"type": "node", "id": 4115162907, "lat": -18.202372, "lon": -65.175512}, {"type": "node", "id": 4428471676, "lat": -18.2027519, "lon": -65.1751777}, {"type": "node", "id": 4428471677, "lat": -18.2024334, "lon": -65.1753118}, {"type": "node", "id": 5211603471, "lat": -18.1326416, "lon": -64.8901937, "tags": {"addr:city": "La Vi\u00f1a", "addr:postcode": "CBA", "amenity": "hospital", "emergency": "yes", "fixme": "Exact_location", "healthcare": "hospital", "healthcare:speciality": "general", "is_in:state": "Cochabamba", "name": "P.S. La Vi\u00f1a", "survey:date": "2019-04-17"}}, {"type": "node", "id": 6410107830, "lat": -18.2034808, "lon": -65.1762022}, {"type": "node", "id": 6410107831, "lat": -18.2035563, "lon": -65.1761415}, {"type": "node", "id": 6410107832, "lat": -18.2036377, "lon": -65.175926}, {"type": "node", "id": 6410107833, "lat": -18.2033397, "lon": -65.1754407}, {"type": "node", "id": 6410107834, "lat": -18.2030257, "lon": -65.1753988}, {"type": "node", "id": 6410107835, "lat": -18.2028289, "lon": -65.1752796}, {"type": "node", "id": 6595383849, "lat": -18.0837903, "lon": -64.9238742, "tags": {"addr:city": "Esmeralda", "addr:postcode": "CBA", "amenity": "hospital", "description": "Puesto de Salud 1er Nivel \nMinsalud CODSNIS 3006091", "emergency": "yes", "fixme": "Exact_location", "healthcare": "hospital", "healthcare:speciality": "general", "name": "P.S. Esmeralda"}}, {"type": "node", "id": 6595391946, "lat": -18.1051839, "lon": -64.9071652, "tags": {"addr:city": "Omereque", "addr:postcode": "CBA", "amenity": "hospital", "description": "Centro de Salud 1er Nivel\nMinsalud CODSNIS 30099", "emergency": "yes", "fixme": "Exact_location", "healthcare": "hospital", "healthcare:speciality": "general", "name": "C.S. Omereque (1er Nivel)"}}, {"type": "node", "id": 6595502064, "lat": -17.9260596, "lon": -64.9867656, "tags": {"addr:city": "Huanacuni Chico", "addr:postcode": "CBA", "amenity": "hospital", "description": "Centro de Salud 1er Nivel\nMinsalud CODSNIS 300434", "emergency": "yes", "fixme": "Exact_location", "healthcare": "hospital", "healthcare:speciality": "general", "name": "C.S. Huanacuni Chico (1er Nivel)"}}, {"type": "way", "id": 684235742, "nodes": [4115162905, 6410107830, 6410107831, 6410107832, 6410107833, 6410107834, 6410107835, 4428471676, 4428471677, 4115162907, 4115162906, 4115162905], "tags": {"addr:city": "Aiquile", "addr:street": "Avenida Ter\u00e1n", "amenity": "hospital", "barrier": "wall", "emergency": "yes", "healthcare": "hospital", "healthcare:speciality": "general", "name": "Hospital Carmen L\u00f3pez", "operator": "Gobierno Aut\u00f3nomo Municipal de Aiquile", "operator:short": "GAMA", "operator:type": "government"}}]}